theater_name,theater_address,jibunAddress,theater_lat,theater_lon
롯데시네마 도곡,서울특별시 강남구 도곡동 174-3,서울특별시 강남구 도곡동 174-3,37.4874592,127.0471432
롯데시네마 브로드웨이(신사),서울특별시 강남구 논현동 도산대로8길 8,서울특별시 강남구 논현동 3-5 브로드웨이,37.516363,127.0219782
메가박스 씨티(강남대로),서울특별시 강남구 역삼1동 강남대로 422,서울특별시 강남구 역삼동 816,37.5004008,127.0270069
메가박스 코엑스,서울특별시 강남구 삼성1동 봉은사로 524,서울특별시 강남구 삼성동 159 코엑스인터콘티넨탈서울,37.5128784,127.0572911
롯데시네마 강동,서울특별시 강동구 성내동 천호옛길 85,서울특별시 강동구 성내동 44-1 영화관씨네일레븐,37.5366647,127.1253535
롯데시네마 월드타워,서울특별시 송파구 잠실6동 올림픽로 300,서울특별시 송파구 신천동 29 롯데월드타워앤드롯데월드몰,37.5125565,127.1025508
메가박스 강동,서울특별시 강동구 성내동 549-2,서울특별시 강동구 성내동 549-2 씨네월드,37.5284024,127.1253953
메가박스 송파파크하비오,서울특별시 송파구 문정동 송파대로 111,서울특별시 송파구 문정동 618 파크하비오,37.4805094,127.1232611
롯데시네마 수유,서울특별시 강북구 번동 449-1,서울특별시 강북구 번동 449-1 북한산스카이빌딩,37.6356926,127.0238275
롯데시네마 가양,서울특별시 강서구 등촌동 73-1,서울특별시 강서구 등촌동 73-1 금부빌딩,37.5616153,126.8532594
롯데시네마 김포공항,서울특별시 강서구 방화동 886,"서울특별시 강서구 방화동 886 김포공항, 롯데몰, 스카이시티",37.565064,126.8030045
메가박스 마곡,"서울특별시 강서구 가양1동 공항대로 247, 퀸즈파크나인",서울특별시 강서구 마곡동 797-1 퀸즈파크나인,37.5593135,126.8352391
메가박스 화곡,서울특별시 강서구 화곡동 1073-10,서울특별시 강서구 화곡동 1073-10 메가박스,37.5406056,126.8375628
롯데시네마 서울대입구,서울특별시 관악구 청룡동 남부순환로 1820,서울특별시 관악구 봉천동 862-1 에그엘로우,37.480976,126.9521426
롯데시네마 신림,서울특별시 관악구 서원동 신림로 330,서울특별시 관악구 신림동 1641-2 포도몰,37.4838598,126.9302425
롯데시네마 건대입구,서울특별시 광진구 자양3동 아차산로 262,서울특별시 광진구 자양동 227-7 더샵스타시티,37.5375105,127.0725939
메가박스 군자,서울특별시 광진구 군자동 477-13,서울특별시 광진구 군자동 477-12,37.5557951,127.0783511
롯데시네마 신도림,서울특별시 구로구 신도림동 경인로 662,서울특별시 구로구 신도림동 692 디큐브시티,37.5083236,126.8884274
롯데시네마 가산디지털,서울특별시 금천구 가산동 60-8,서울특별시 금천구 가산동 60-8 현대시티아울렛 가산점,37.4775947,126.8890743
롯데시네마 독산,서울특별시 금천구 독산동 291-5,서울특별시 금천구 독산동 291-5 시티렉스,37.4694099,126.8974532
롯데시네마 노원,서울특별시 노원구 상계동 713,서울특별시 노원구 상계동 713 롯데백화점,37.6551499,127.0610983
롯데시네마 수락산,서울특별시 노원구 상계동 동일로 1660,서울특별시 노원구 상계동 1132-35,37.6765981,127.0556934
메가박스 창동,서울특별시 도봉구 창동 도봉로 558,서울특별시 도봉구 창동 715-14,37.6546022,127.0387322
롯데시네마 장안,서울특별시 동대문구 장안동 답십리로 288,서울특별시 동대문구 장안동 368-1 아트몰링 장안,37.5719099,127.0723918
롯데시네마 청량리,서울특별시 동대문구 전농1동 왕산로 214,"서울특별시 동대문구 전농동 591-53 청량리역,롯데백화점",37.5841971,127.051139
메가박스 이수,서울특별시 동작구 사당동 147-53,서울특별시 동작구 사당동 147-53 골든시네마타워,37.4847671,126.9815275
롯데시네마 합정,"서울특별시 마포구 양화로 45, (서교동, 메세나폴리스) 2층",서울특별시 마포구 서교동 490 메세나폴리스,37.5510463,126.913739
롯데시네마 홍대입구,서울특별시 마포구 동교동 166-6,서울특별시 마포구 동교동 166-6 동교동 스타피카소,37.5573379,126.9252984
메가박스 상암 월드컵경기장,서울특별시 마포구 성산2동 420번지 1층,서울특별시 마포구 성산2동 420 월드컵경기장역,37.5699425,126.8990336
메가박스 홍대,서울특별시 마포구 동교동 160-4,서울특별시 마포구 동교동 160-4 아일렉스,37.5560685,126.922094
메가박스 신촌,서울특별시 서대문구 신촌동 신촌역로 30,서울특별시 서대문구 신촌동 74-12 신촌민자역사,37.5598242,126.942387
메가박스 강남,서울특별시 서초구 서초4동 서초대로77길 3,서울특별시 서초구 서초동 1317-20 아라타워,37.4980667,127.0264975
메가박스 센트럴(고속터미널),서울특별시 서초구 반포동 신반포로 176,서울특별시 서초구 반포동 19-3 센트럴시티,37.5049178,127.0032131
메가박스 성수,서울특별시 성동구 성수1가1동 656-335,서울특별시 성동구 성수1가1동 656-335,37.5418774,127.0449582
메가박스 목동,서울특별시 양천구 목1동 목동동로 309,서울특별시 양천구 목동 917-6 중소기업유통센터(행복한백화점),37.5292353,126.8759988
롯데시네마 영등포,서울특별시 영등포구 영등포동 618-496,서울특별시 영등포구 영등포동 618-496 영등포 민자역사,37.5159228,126.9073768
롯데시네마 용산,서울특별시 용산구 한강로3가 청파로 74,서울특별시 용산구 한강로3가 16-9 전자랜드,37.5327888,126.9595585
롯데시네마 은평(롯데몰),서울특별시 은평구 진관동 통일로 1050,서울특별시 은평구 진관동 63 롯데몰 은평점,37.6375366,126.9179003
메가박스 은평,서울특별시 은평구 불광동 304-2,서울특별시 은평구 불광동 304-2 파레제페빌딩,37.6178371,126.9227515
롯데시네마 에비뉴엘(명동),서울특별시 중구 소공동 남대문로 73,서울특별시 중구 남대문로2가 130 AVENUEL,37.5641952,126.981707
메가박스 동대문,서울특별시 중구 광희동 장충단로 247,서울특별시 중구 을지로6가 18-21 굿모닝시티쇼핑몰,37.5668246,127.007403
메가박스 상봉,서울특별시 중랑구 상봉동 망우로30길 3,서울특별시 중랑구 상봉동 130-3 안산빌딩,37.5930848,127.074771
롯데시네마 검단,인천광역시 서구 완정로 163 트리풀타워,인천광역시 서구 왕길동 662-1 트리풀타워,37.6017666,126.6580234
롯데시네마 부평,인천광역시 부평구 부평동 대정로 66,인천광역시 부평구 부평동 152-1 다운타운일레븐,37.4935756,126.7266952
롯데시네마 부평역사,인천광역시 부평구 부평동 광장로 16,인천광역시 부평구 부평동 738-21 부평민자역사,37.4895676,126.7233507
롯데시네마 영종하늘도시,인천광역시 중구 중산동 하늘중앙로195번길 15,인천광역시 중구 중산동 1883-12 세영프라자,37.4897096,126.5613393
롯데시네마 인천아시아드,인천광역시 서구 연희동 봉수대로 806,인천광역시 서구 연희동 826 인천아시아드주경기장,37.5451869,126.6650996
롯데시네마 인천터미널,인천광역시 남구 관교동 연남로 35,"인천광역시 미추홀구 관교동 15 인천종합터미널,롯데백화점",37.4424853,126.7013784
메가박스 검단,인천광역시 서구 당하동 1098-5,인천광역시 서구 당하동 1098-5 홀리랜드,37.5879504,126.6754009
메가박스 송도,인천광역시 연수구 송도동 176-5,인천광역시 연수구 송도동 176-5 송도 트리플스트리트,37.3786548,126.6628414
메가박스 영종,인천광역시 중구 운서동 3088-3,인천광역시 중구 운서동 3088-3 영종예스타워복합상영관,37.4922979,126.498775
메가박스 인천논현,인천광역시 남동구 논현1동 논고개로 61,인천광역시 남동구 논현동 747-1 라피에스타,37.3975366,126.7275277
메가박스 청라지젤,인천광역시 서구 청라동 청라에메랄드로 99,인천광역시 서구 청라동 165-12 지젤엠청라,37.5336073,126.6557308
롯데시네마 라페스타관(일산),경기도 고양시 일산동구 장항동 무궁화로 32-34,경기도 고양시 일산동구 장항동 764 라페스타C,37.6612864,126.7688372
롯데시네마 주엽,경기도 고양시 일산서구 주엽동 22,경기도 고양시 일산서구 주엽동 22 그랜드백화점일산점,37.6709904,126.7612005
메가박스 고양스타필드,경기도 고양시 덕양구 동산동 251-370,경기도 고양시 덕양구 동산동 251-367,37.6386853,126.8870286
메가박스 백석,경기도 고양시 일산동구 백석1동 중앙로 1036,경기도 고양시 일산동구 백석동 1242 베스트 고양터미널,37.6431783,126.7896617
메가박스 일산,경기도 고양시 일산서구 덕이동 덕이로 20,경기도 고양시 일산서구 덕이동 219-8 양우씨네플렉스,37.6898628,126.7568739
메가박스 일산벨라시타,"경기도 고양시 일산동구 강송로 33, A동 2F 일산벨라시타",경기도 고양시 일산동구 백석동 1237 일산요진와이시티,37.6429789,126.7932556
메가박스 킨텍스,경기도 고양시 일산서구 대화동 호수로 817,경기도 고양시 일산서구 대화동 2602,37.6682829,126.7511979
롯데시네마 광명(광명사거리),"경기도 광명시 광명동 150-9, 크로 앙스 7 층 롯데 시네마 광명 관",경기도 광명시 광명동 150-9,37.4790723,126.8568663
롯데시네마 광명아울렛,경기도 광명시 일직동 500,"경기도 광명시 일직동 500 이케아광명점,롯데아울렛",37.4241703,126.8834589
롯데시네마 광주터미널(경기),경기도 광주시 경안동 광주대로 30,경기도 광주시 경안동 25-3 광주종합터미널,37.4096153,127.2612629
롯데시네마 구리아울렛,경기도 구리시 동구동 419-7,경기도 구리시 동구동 419-7 구리 복합몰(롯데아울렛 구리점),37.6118771,127.1405381
롯데시네마 산본피트인,경기도 군포시 산본동 1145-6,경기도 군포시 산본동 1145-6 롯데 피트인 산본,37.3578093,126.930686
메가박스 김포한강신도시,"경기도 김포시 구래동 6882-4, 두원타워 8층",경기도 김포시 구래동 6882-4 두원타워,37.644921,126.6244666
롯데시네마 마석,경기도 남양주시 화도읍 마석우리 277-1,경기도 남양주시 화도읍 마석우리 277-1,37.65196,127.3095942
롯데시네마 진접,경기도 남양주시 진접읍 금곡리 1081-2,경기도 남양주시 진접읍 금곡리 1081-2 래일스타,37.7120218,127.1866677
메가박스 남양주,경기도 남양주시 호평동 늘을2로 26,경기도 남양주시 호평동 640 메인시네마타워,37.6550783,127.2441115
메가박스 별내,경기도 남양주시 두물 로 19,경기도 남양주시 별내동 936-4,37.6558305,127.1266087
롯데시네마 부천(신중동역),경기도 부천시 원미구 중동 1141-2,경기도 부천시 중동 1141-2 프리머스 부천타워,37.5028525,126.7731903
롯데시네마 부천역,경기도 부천시 원미구 심곡동 175-6,경기도 부천시 심곡동 175-6 해태쇼핑,37.4854991,126.78252
메가박스 부천스타필드시티,경기도 부천시 소사구 계수동 59-2,경기도 부천시 계수동 59-2,37.4621911,126.813651
롯데시네마 성남중앙(신흥역),경기도 성남시 수정구 신흥3동 4124,경기도 성남시 수정구 신흥3동 4124,37.4413097,127.1464435
롯데시네마 위례,경기도 성남시 수정구 창곡동 위례광장로 104,경기도 성남시 수정구 창곡동 505 위례 한화 오벨리스크 센트럴스퀘어,37.4730526,127.1412642
메가박스 분당,경기도 성남시 분당구 서현1동 황새울로 332,경기도 성남시 분당구 서현동 262-2 분당문화센터,37.385533,127.1223318
롯데시네마 광교아울렛,경기도 수원시 영통구 이의동 도청로 10,경기도 수원시 영통구 이의동 1338 광교센트럴푸르지오시티,37.2866697,127.0554484
롯데시네마 북수원,경기도 수원시 장안구 천천동 516,경기도 수원시 장안구 천천동 516,37.3006602,126.9840889
롯데시네마 서수원,경기도 수원시 권선구 금곡동 1114-1,경기도 수원시 권선구 금곡동 1114-1 리더스 빌딩,37.2750132,126.9540961
롯데시네마 수원(수원역),경기도 수원시 권선구 서둔동 세화로 134,경기도 수원시 권선구 서둔동 381 롯데몰 수원점,37.2642663,126.997239
메가박스 수원,경기도 수원시 권선구 권선동 1189,"경기도 수원시 권선구 권선동 1189 터미널동, 할인점동",37.2504584,127.0208873
메가박스 수원남문,경기도 수원시 팔달구 행궁동 행궁로 71,경기도 수원시 팔달구 팔달로3가 84-5,37.2762808,127.0159726
메가박스 영통,"경기도 수원시 영통구 영통동 봉영로 1579, 롯데쇼핑플라자 5층",경기도 수원시 영통구 영통동 960-1 롯데마트 영통점,37.2527349,127.0716575
롯데시네마 시화,경기도 시흥시 정왕본동 마유로418번길 10,경기도 시흥시 정왕동 2327-2 롯데시네마 시화점,37.3514417,126.741828
메가박스 시흥배곧,경기도 시흥시 정왕4동 배곧3로 96,경기도 시흥시 정왕동 2514 M-플러스,37.3698177,126.7300125
롯데시네마 센트럴락(안산),경기도 안산시 상록구 성포동 항가울로 422,경기도 안산시 상록구 성포동 590 롯데마트,37.3178467,126.8469101
롯데시네마 안산,경기도 안산시 상록구 성포동 항가울로 422,경기도 안산시 상록구 성포동 590 롯데마트,37.3178467,126.8469101
롯데시네마 안산고잔,경기도 안산시 단원구 고잔동 717-2,경기도 안산시 단원구 고잔동 717-2 밀레니엄 1,37.3087842,126.8289245
롯데시네마 안성,경기도 안성시 공도읍 양기리 306,경기도 안성시 공도읍 양기리 306 롯데마트,37.0078137,127.1995975
롯데시네마 안양(안양역),경기도 안양시 만안구 안양1동 만안로 244,"경기도 안양시 만안구 안양동 88-1 안양민자역사,롯데백화점",37.4027314,126.9220045
롯데시네마 안양일번가,경기도 안양시 만안구 안양4동 676-1,경기도 안양시 만안구 안양4동 676-1 PROJECT 500 TOWER,37.3997574,126.9202416
롯데시네마 인덕원,경기도 안양시 동안구 관양동,경기도 안양시 동안구 관양동,37.404807,126.964538
롯데시네마 평촌(범계역),경기도 안양시 동안구 호계동 1039,"경기도 안양시 동안구 호계동 1039 G.SQURE, 롯데백화점 평촌점",37.3902276,126.9504818
메가박스 양주,경기도 양주시 광사동 고읍남로 6-6,경기도 양주시 광사동 651-1,37.7962231,127.0801145
롯데시네마 오산(원동),경기도 오산시 원동 경기대로 198,경기도 오산시 원동 300-8 시네아울렛,37.1423116,127.073936
롯데시네마 수지,경기도 용인시 수지구 성복동 61-7,경기도 용인시 수지구 성복동 61-7,37.3130315,127.0810943
롯데시네마 용인기흥,경기도 용인시 기흥구 구갈동 234,경기도 용인시 기흥구 구갈동 234 태평양종합산업,37.2739189,127.1183652
롯데시네마 용인역북,경기도 용인시 처인구 역북동 530,경기도 용인시 처인구 역북동 530,37.2358969,127.188792
메가박스 용인기흥,"경기도 용인시 기흥구 고매동 신고매로 59, (고매동, 리빙파워센터 4층 메가박스)",경기도 용인시 기흥구 고매동 271,37.2235019,127.1142401
메가박스 용인테크노밸리,"경기도 용인시 기흥구 청덕동 556, 용인테크노밸리지식산업센터 A동 지하1 층",경기도 용인시 기흥구 청덕동 556 용인테크노밸리,37.2913873,127.148087
롯데시네마 의정부민락,경기도 의정부시 민락동 804-6,경기도 의정부시 민락동 804-6,37.7442342,127.0965085
메가박스 의정부 민락,경기도 의정부시 민락동 813-3,경기도 의정부시 민락동 813-3 메가타워,37.7458455,127.0957502
롯데시네마 파주아울렛,경기도 파주시 문발동 문발로 284,경기도 파주시 문발동 644 롯데프리미엄아울렛,37.7180927,126.692549
롯데시네마 파주운정,경기도 파주시 목동동 927,경기도 파주시 목동동 927 홈플러스 파주운정점,37.7295278,126.7367686
메가박스 파주금촌,경기도 파주시 중앙로 328,서울특별시 양천구 신정동 939-7 목동오피스텔,37.5253733,126.8505324
메가박스 파주운정,경기도 파주시 운정3동 경의로 991,경기도 파주시 야당동 483-3,37.7057077,126.7587427
메가박스 파주출판도시,경기도 파주시 교하동 문발로 220,경기도 파주시 문발동 510-1 C.별관,37.7138458,126.6877844
롯데시네마 송탄,경기도 평택시 서정동 818-35 8층,경기도 평택시 서정동 818-35,37.0672451,127.060779
롯데시네마 평택비전,경기도 평택시 비전동 830-1,경기도 평택시 비전동 830-1 뉴코아 아울렛 백화점,36.9954605,127.1125809
메가박스 평택,경기도 평택시 평택동 35-3,경기도 평택시 평택동 35-3 M - 프라자,36.9943232,127.0879426
메가박스 미사강변,경기도 하남시 망월동 1079-2,경기도 하남시 망월동 1079-2 성산타워,37.5664329,127.1896485
메가박스 하남스타필드,경기도 하남시 창우동 139-2,경기도 하남시 창우동 139-2,37.5454142,127.2246336
롯데시네마 병점,"경기도 화성시 병점동 효행로 1052, 8층",경기도 화성시 병점동 844-1 씨네샤르망,37.2139316,127.0424743
롯데시네마 향남,경기도 화성시 향남읍 상신하길로298번길 7-21,경기도 화성시 향남읍 하길리 1470-2,37.1151722,126.9124754
메가박스 동탄,경기도 화성시 반송동 동탄지성로 11,경기도 화성시 반송동 93-2 동탄SR GOLD PLAZA,37.2045187,127.0727835
롯데시네마 광복,부산광역시 중구 중앙동 중앙대로 2,부산광역시 중구 중앙동7가 20-1 롯데백화점광복점,35.0983052,129.0367023
롯데시네마 대영,부산광역시 중구 남포동 비프광장로 37,부산광역시 중구 남포동5가 12-1,35.09862,129.0294639
롯데시네마 동래,부산광역시 동래구 온천동 중앙대로 1393,부산광역시 동래구 온천동 502-3 롯데백화점,35.211708,129.0774798
롯데시네마 동부산,부산광역시 기장군 기장읍 기장해안로 147,부산광역시 기장군 기장읍 당사리 524 롯데몰 동부산점,35.1921607,129.2127177
롯데시네마 부산본점(롯데백화점),"부산광역시 부산진구 부전2동 가야대로 772, 롯데백화점부산본점 10F",부산광역시 부산진구 부전동 503-15,35.1568255,129.0564313
롯데시네마 사상,부산광역시 사상구 괘법동 사상로 201,부산광역시 사상구 괘법동 533-1 서부시외버스터미널,35.1631462,128.9809858
롯데시네마 서면(전포동),부산광역시 부산진구 전포동 동천로 92,부산광역시 부산진구 전포동 668-1,35.1570461,129.0630259
롯데시네마 센텀시티,"부산광역시 해운대구 우동 센텀남대로 59, 롯데백화점센텀시티점 8F",부산광역시 해운대구 우동 1496 롯데백화점센텀시티점,35.1698533,129.1310696
롯데시네마 오투(부산대),부산광역시 금정구 부곡2동 중앙대로 1607,부산광역시 금정구 부곡동 298-2 금정복합빌딩,35.2283166,129.089802
롯데시네마 프리미엄 해운대(장산역),부산광역시 해운대구 좌2동 해운대로 802,부산광역시 해운대구 좌동 1479-1 웅신시네아트,35.1691635,129.1766569
메가박스 덕천,부산광역시 북구 덕천2동 만덕대로 23,부산광역시 북구 덕천동 398-2 폴라렉스,35.2111163,129.0075924
메가박스 부산극장,부산광역시 중구 남포동 비프광장로 36,부산광역시 중구 남포동5가 18-1,35.0986228,129.0287568
메가박스 부산대,부산광역시 금정구 장전3동 장전로12번길 55,부산광역시 금정구 장전동 292-4 라퓨타아일랜드,35.2301166,129.0880946
메가박스 정관,"부산광역시 기장군 정관면 정관6로 39, 큐엠시네마타워 5층",부산광역시 기장군 정관읍 매학리 777-1,35.3194395,129.1783583
메가박스 해운대(장산),부산광역시 해운대구 좌1동 해운대로 813,부산광역시 해운대구 좌동 1467-4 지팝건축물,35.1705601,129.1770337
롯데시네마 울산(백화점),울산광역시 남구 삼산동 1480-1,울산광역시 남구 삼산동 1480-1 롯데호텔,35.5384501,129.3383349
롯데시네마 울산성남,울산광역시 중구 성남동 220-1,울산광역시 중구 성남동 220-1,35.5531205,129.3201482
롯데시네마 거창,경상남도 거창군 거창읍 중앙로1길 1,경상남도 거창군 거창읍 중앙리 90-2 프리미어고센상영관,35.6874702,127.9131227
롯데시네마 김해부원,경상남도 김해시 부원동 김해대로 2352,경상남도 김해시 부원동 1046,35.2258507,128.8841858
롯데시네마 김해아울렛(장유),경상남도 김해시 장유면 장유로 469,경상남도 김해시 신문동 1414 롯데아울렛,35.1850621,128.8295963
롯데시네마 사천,경상남도 사천시 사천읍 항공로 6,경상남도 사천시 사천읍 수석리 331,35.0810541,128.082343
메가박스 양산,경상남도 양산시 중부동 강변로 440,경상남도 양산시 중부동 685-6 쇼핑몰 바나나빌딩,35.3382691,129.0269366
메가박스 양산라피에스타,"경상남도 양산시 물금읍 증산역로 177, 6 7층",경상남도 양산시 물금읍 가촌리 1292 라피에스타,35.3098631,129.0093721
롯데시네마 엠비씨네(진주),"경상남도 진주시 가좌동 가호로 13, 엠비씨네",경상남도 진주시 가좌동 700-1 MBC경남진주,35.1637988,128.107442
롯데시네마 진주혁신(진주몰),경상남도 진주시 동진로 440,경상남도 진주시 충무공동 35 롯데아울렛 진주점,35.1801541,128.1398413
롯데시네마 프리미엄 진주(중안),경상남도 진주시 중안동 12-13,경상남도 진주시 중안동 12-13 롯데시네마,35.1928243,128.0826162
롯데시네마 마산(합성동),경상남도 창원시 마산회원구 합성2동 267,경상남도 창원시 마산회원구 합성2동 267 마산시외버스터미널,35.2389458,128.5837211
롯데시네마 진해,"경상남도 창원시 진해구 진해대로 752, 롯데시네마",경상남도 창원시 진해구 석동 543-3 롯데시네마,35.1588178,128.6974237
롯데시네마 창원,"경상남도 창원시 성산구 중앙대로 124, 롯데백화점",경상남도 창원시 성산구 상남동 79 롯데백화점,35.2245638,128.6819048
롯데시네마 프리미엄 경남대,경상남도 창원시 마산합포구 월남동5가 해안대로 7,경상남도 창원시 마산합포구 월남동5가 4-1 경남은행,35.1807905,128.5597378
메가박스 마산,경상남도 창원시 마산합포구 해운동 해안대로 51,경상남도 창원시 마산합포구 해운동 68 유로스퀘어,35.1819129,128.5638553
메가박스 창원,경상남도 창원시 성산구 중앙동 용지로 58,경상남도 창원시 성산구 중앙동 99-1 메가플렉스,35.2213561,128.6757131
메가박스 창원내서,경상남도 창원시 마산회원구 내서읍 광려천서로 81,경상남도 창원시 마산회원구 내서읍 중리 1043-1,35.2490244,128.5106685
롯데시네마 통영,경상남도 통영시 무전동 986,경상남도 통영시 무전동 986 멀티플렉스 아울렛줌,34.8591694,128.4302917
롯데시네마 대구광장,대구광역시 서구 내당동 달구벌대로 1691,대구광역시 서구 내당동 463-62,35.8557204,128.5507114
롯데시네마 대구율하,대구광역시 동구 율하동 1117,대구광역시 동구 율하동 1117 롯데쇼핑프라자,35.8683929,128.6933703
롯데시네마 대구현풍,대구광역시 달성군 현풍읍 테크노상업로 62,대구광역시 달성군 현풍읍 중리 490,35.6932038,128.4563081
롯데시네마 동성로,대구광역시 중구 동성로2가 66-1,대구광역시 중구 동성로2가 66-1 동성로 엔터테인먼트몰,35.8701619,128.5966888
롯데시네마 상인,대구광역시 달서구 상인동 월곡로 247,대구광역시 달서구 상인동 241 롯데시네마,35.8164366,128.5392662
롯데시네마 성서,대구광역시 달서구 이곡동 1244-1,대구광역시 달서구 이곡동 1244-1 성서롯데시네마,35.8544268,128.5078228
롯데시네마 프리미엄 만경,대구광역시 중구 종로1가 29-4,대구광역시 중구 종로1가 29-4 MMC 만경관,35.8709521,128.5905418
롯데시네마 프리미엄 칠곡,대구광역시 북구 구암동 학정로 422,대구광역시 북구 구암동 769-1 태을빌딩,35.9421823,128.5638821
메가박스 대구,대구광역시 북구 칠성동 침산로 93,대구광역시 북구 칠성동2가 20-1 스펙트럼시티,35.8852256,128.5897899
메가박스 대구 신세계,대구광역시 동구 신천4동 동부로 149,대구광역시 동구 신천동 1506 신세계동대구복합환승센터,35.8779357,128.6291733
메가박스 대구이시아,대구광역시 동구 불로.봉무동 팔공로49길 51,대구광역시 동구 봉무동 1548,35.9206687,128.6359096
메가박스 북대구(칠곡),"대구광역시 북구 동암로 100, 씨네피아",대구광역시 북구 동천동 895-2 씨네피아,35.9440712,128.5617279
롯데시네마 경산,경상북도 경산시 북부동 강변동로 278,경상북도 경산시 대평동 439-7,35.834577,128.733397
메가박스 경산하양,경상북도 경산시 하양읍 대경로 765,경상북도 경산시 하양읍 금락리 607,35.9136562,128.8232864
롯데시네마 경주,경상북도 경주시 노동동 계림로 83,경상북도 경주시 노동동 73-2,35.8416091,129.2132279
메가박스 경주,경상북도 경주시 노동동 55-1,경상북도 경주시 노동동 55-1,35.8416628,129.21284
롯데시네마 구미공단,경상북도 구미시 공단동 산호대로 233,경상북도 구미시 공단동 253-2 구미BOX IN,36.104273,128.3849769
롯데시네마 프리미엄 구미센트럴,경상북도 구미시 구미중앙로17길 16,경상북도 구미시 원평동 147-9,36.1289764,128.3348796
메가박스 구미강동,경상북도 구미시 인동가산로 14,경상북도 구미시 진평동 1023-2,36.1071232,128.4180016
메가박스 김천,경상북도 김천시 평화동 245-82,경상북도 김천시 평화동 245-82 메가박스,36.1252486,128.110767
메가박스 문경,경상북도 문경시 점촌5동 모전로 65,경상북도 문경시 모전동 859-2,36.5873103,128.1903771
롯데시네마 상주,경상북도 상주시 남성동 중앙로 147,경기도 고양시 덕양구 화전동 203-33,37.6013196,126.8714701
롯데시네마 프리미엄 안동,경상북도 안동시 옥동 경북대로 418,경상북도 안동시 옥동 734 테마프라자,36.5663544,128.6997397
롯데시네마 영주,경상북도 영주시 영주2동 497,경상북도 영주시 영주2동 497,36.827218,128.6177343
메가박스 경북도청,경상북도 예천군 호명면 산합리 1431,경상북도 예천군 호명면 산합리 1431 K-씨네몰,36.5751884,128.4930877
롯데시네마 포항,경상북도 포항시 북구 중앙동 중앙상가길 16,경상북도 포항시 북구 대흥동 563-3,36.0366404,129.3629595
메가박스 남포항,경상북도 포항시 남구 오천읍 원리 386-2,경기도 화성시 매송면 원리 386-2,37.2824007,126.8789648
롯데시네마 대전(백화점),"대전광역시 서구 계룡로 598, (괴정동)",대전광역시 서구 괴정동 423-1 롯데백화점,36.3406093,127.3895912
롯데시네마 대전관저,대전광역시 서구 관저동 524-3,대전광역시 서구 관저동 524-3,36.3025505,127.3337806
롯데시네마 대전둔산(월평동),"대전광역시 서구 월평2동 대덕대로 325, 스타게이트 12층",대전광역시 서구 월평동 243,36.3618692,127.3789274
롯데시네마 대전센트럴,대전광역시 서구 둔산동 대덕대로 216,대전광역시 서구 둔산동 1279,36.3519426,127.3794999
메가박스 대전,대전광역시 서구 탄방동 문정로 77,대전광역시 서구 탄방동 746 로데오 타운,36.3473187,127.387991
메가박스 대전유성,대전광역시 유성구 봉명동 326-45,대전광역시 유성구 봉명동 326-45,36.3521919,127.3445949
메가박스 대전중앙로,대전광역시 중구 대흥동 중앙로 126,대전광역시 중구 대흥동 205-1,36.3276451,127.4241138
메가박스 대전현대아울렛,대전광역시 유성구 용산동 579,충청북도 충주시 용산동 580,36.9639468,127.9407119
메가박스 제천,충청북도 제천시 남현동 의병대로18길 1,충청북도 제천시 남천동 1145 TTC영화관,37.135273,128.2123487
메가박스 진천,충청북도 진천군 진천읍 중앙북로 9,충청북도 진천군 진천읍 벽암리 569-4,36.8596438,127.4381791
롯데시네마 서청주(아울렛),충청북도 청주시 흥덕구 비하동,충청북도 청주시 흥덕구 비하동,36.6348154,127.41635
롯데시네마 청주 용암,충청북도 청주시 상당구 용암동 1703,충청북도 청주시 상당구 용암동 1703,36.6070356,127.5030807
롯데시네마 청주(성안길),충청북도 청주시 상당구 북문로1가 성안로 13,충청북도 청주시 상당구 북문로1가 90-1 씨유멀티플렉스,36.6359161,127.489494
메가박스 오창,충청북도 청주시 청원구 오창읍 중심상업1로 8-9,충청북도 청주시 청원구 오창읍 양청리 820-1,36.7122317,127.4285587
메가박스 청주사창,충청북도 청주시 서원구 사창동 1순환로 68,충청북도 청주시 청원구 율량동 2240 청주우체국,36.6633747,127.5050381
롯데시네마 충주,충청북도 충주시 달천동 786-3,충청북도 충주시 달천동 786-3,36.9617407,127.8982219
메가박스 충주,충청북도 충주시 성내.충인동 성서3길 19,충청북도 충주시 성서동 273 TTC,36.9712407,127.932856
메가박스 공주,충청남도 공주시 신관동 흑수골길 12,충청남도 공주시 신관동 248-11,36.4735347,127.1388635
메가박스 논산,충청남도 논산시 내동 382-32,충청남도 논산시 내동 382-32,36.1899077,127.0990395
롯데시네마 서산,충청남도 서산시 동문동 193-1,충청남도 서산시 동문동 193-1 롯데시네마서산점,36.7788855,126.4656629
롯데시네마 아산터미널,충청남도 아산시 모종동 번영로 225,충청남도 아산시 모종동 555-5 아산시외버스터미널복합시설,36.7846804,127.0158714
메가박스 천안,충청남도 천안시 서북구 부성동 1공단1길 52,충청남도 천안시 서북구 두정동 68-16 센트하임프라자,36.8323962,127.147941
메가박스 홍성내포,"충청남도 홍성군 홍북읍 청사로 174번길 2, 6층 메가박스 홍성내포점",충청남도 홍성군 홍북읍 신경리 555 한승갤러리,36.6593767,126.678993
롯데시네마 동해,강원도 동해시 천곡동 863,강원도 동해시 천곡동 863 현진빌딩,37.5221585,129.1153027
메가박스 속초,강원도 속초시 조양동 조양로142번길 20,강원도 속초시 조양동 1506-1 메가박스,38.1890784,128.5858745
롯데시네마 남원주,강원도 원주시 단구동 서원대로 396,강원도 원주시 단구동 1511-2 스타월드,37.3307485,127.9488651
롯데시네마 원주무실,강원도 원주시 무실동 1857-10,강원도 원주시 무실동 1857-10,37.3348483,127.930155
메가박스 원주,강원도 원주시 단계동 서원대로 165-3,강원도 원주시 단계동 873 아트스페이스빌딩,37.3450028,127.9298685
메가박스 원주센트럴,강원도 원주시 반곡동 황금로 2,강원도 원주시 반곡동 1903-3,37.3277893,127.9865826
메가박스 남춘천,강원도 춘천시 온의동 춘천로17번길 17,강원도 춘천시 온의동 587-8,37.8664269,127.7202293
메가박스 세종 (조치원),세종특별자치시 조치원읍 새내로 122,세종특별자치시 조치원읍 교리 24-1 메가박스,36.6029088,127.2981502
메가박스 세종나성,"세종특별자치시 나성로 38, 4~6층(나성동, 세종 가로수길 건물)",세종특별자치시 나성동 206 세종가로수길,36.4835557,127.2638739
메가박스 세종청사,세종특별자치시 조치원읍 새내로 122,세종특별자치시 조치원읍 교리 24-1 메가박스,36.6029088,127.2981502
롯데시네마 광주(백화점),"광주광역시 동구 대인동 독립로 268, 롯데백화점 9층",광주광역시 동구 대인동 7-1 롯데백화점,35.1545422,126.9121946
롯데시네마 수완(아울렛),"광주광역시 광산구 장신로 98, 롯데마트",광주광역시 광산구 장덕동 1678 롯데마트,35.1894384,126.8192876
롯데시네마 충장로,"광주광역시 동구 충장로안길 12, 롯데시네마 충장로점",광주광역시 동구 황금동 12-2 롯데시네마 충장로점,35.148055,126.9145224
메가박스 광주 상무,광주광역시 서구 치평동 1223-3,광주광역시 서구 치평동 1223-3 콜롬버스시네마,35.1543009,126.854407
메가박스 광주 하남,광주광역시 광산구 우산동 풍영철길로 15,광주광역시 광산구 우산동 1587-1 콜럼버스월드,35.1628953,126.8116598
메가박스 전대(광주),광주광역시 북구 중흥동 우치로 60,광주광역시 북구 중흥동 362-2,35.1726385,126.9125549
메가박스 첨단,광주광역시 광산구 쌍암동 688-4,전라북도 정읍시 쌍암동 688-3,35.5112618,126.8934472
롯데시네마 군산나운,전라북도 군산시 나운2동 백토로 198,전라북도 군산시 나운동 114-34,35.9616423,126.7048696
롯데시네마 군산몰,"전라북도 군산시 조촌동 조촌로 130, 롯데몰 군산점 4F",전라북도 군산시 조촌동 450-21 롯데몰 군산점,35.9764097,126.7391167
메가박스 남원,전라북도 남원시 죽항동 향단로 26,전라북도 남원시 쌍교동 82-1 씨너스영화관,35.4054781,127.3833654
롯데시네마 익산모현,전라북도 익산시 모현동 선화로 77,전라북도 익산시 모현동1가 876,35.9498331,126.939737
롯데시네마 전주(백화점),"전라북도 전주시 완산구 온고을로 2, (서신동)",전라북도 전주시 완산구 서신동 971 롯데백화점,35.8345049,127.1218933
롯데시네마 전주평화,전라북도 전주시 완산구 평화동1가 백제대로 10,전라북도 전주시 완산구 평화동1가 604-1 전주롯데시네마 평화점,35.796421,127.1327386
메가박스 송천,전라북도 전주시 덕진구 송천동2가 동부대로 1215,전라북도 전주시 덕진구 송천동2가 661-15 메가박스,35.8695048,127.1139471
메가박스 목포하당(포르모),전라남도 목포시 하당동 옥암로 95,전라남도 목포시 상동 860-1 쇼핑천국포르모,34.8073332,126.4254432
메가박스 순천,전라남도 순천시 덕연동 충효로 15,경상남도 합천군 합천읍 합천리 863-1 합천군농업기술센터,35.5620484,128.1599138
메가박스 여수웅천,전라남도 여수시 웅천동 신월로 96,전라남도 여수시 웅천동 1720-1,34.7491033,127.6789353
롯데시네마 서귀포,제주특별자치도 서귀포시 법환동 914,제주특별자치도 서귀포시 법환동 914 익스트림아일랜드,33.246467,126.509001
롯데시네마 제주삼화,제주특별자치도 제주시 삼양이동 1477-8,제주특별자치도 제주시 삼양이동 1477-8,33.520533,126.5882075
롯데시네마 제주아라,제주특별자치도 제주시 아라일동 2574,제주특별자치도 제주시 아라일동 2574 메가타워,33.4838578,126.5358685
메가박스 제주,제주특별자치도 제주시 중앙로14길 18,제주특별자치도 제주시 삼도이동 108-13 아카데미극장,33.5116016,126.5225566
CGV 강남,서울특별시 강남구 역삼동 강남대로 438,서울특별시 강남구 역삼동 814-6 스타플렉스,37.5016424,127.0263372
CGV 강변,서울특별시 광진구 구의동 광나루로56길 85,서울특별시 광진구 구의동 546-4 테크노-마트21,37.5357263,127.0957093
CGV 건대입구,서울특별시 광진구 자양4동 아차산로30길 26,서울특별시 광진구 자양동 9-4,37.5397608,127.0668877
CGV 구로,서울특별시 구로구 구로동 구로중앙로 152,서울특별시 구로구 구로동 573,37.5011602,126.8827731
CGV 대학로,서울특별시 종로구 혜화동 대명길 28,서울특별시 종로구 명륜2가 41-9 대학로CGV,37.5834877,126.9998451
CGV 동대문,서울특별시 중구 광희동 장충단로13길 20,서울특별시 중구 을지로6가 17-2 현대시티타워,37.5687346,127.0076665
CGV 등촌,서울특별시 강서구 등촌동 공항대로45길 61,서울특별시 강서구 등촌동 639-23,37.557869,126.8560012
CGV 명동,"서울특별시 중구 명동2가 명동길 14, 눈스퀘어 8층",서울특별시 중구 명동2가 83-5 Noon Square,37.5634204,126.9829027
CGV 명동역 씨네라이브러리,서울특별시 중구 충무로2가 퇴계로 123,서울특별시 중구 충무로2가 65-9 하이헤리엇,37.5612704,126.9853758
CGV 목동,서울특별시 양천구 목동 목동동로 257,서울특별시 양천구 목동 916 현대하이페리온,37.5265922,126.8744517
CGV 미아,서울특별시 강북구 미아동 도봉로 34,서울특별시 강북구 미아동 35-4 트레지오,37.6120803,127.0307347
CGV 불광,서울특별시 은평구 대조동 14-24,서울특별시 은평구 대조동 14-25,37.609625,126.9284815
CGV 상봉,서울특별시 중랑구 상봉동 상봉로 131,서울특별시 중랑구 상봉동 501 상봉 듀오트리스,37.5975129,127.0922132
CGV 성신여대입구,서울특별시 성북구 동소문로 106,서울특별시 성북구 동선동1가 1-2 유타,37.5925804,127.0170935
CGV 송파,"서울특별시 송파구 문정동 충민로 66, 10층",서울특별시 송파구 문정동 634 가든파이브라이프,37.4774196,127.1250176
CGV 수유,서울특별시 강북구 수유동 도봉로 399,서울특별시 강북구 수유동 168-12,37.6424159,127.0298203
CGV 신촌아트레온,서울특별시 서대문구 신촌동 신촌로 129,서울특별시 마포구 노고산동 40-1,37.5557622,126.9399549
CGV 압구정,서울특별시 강남구 신사동 압구정로30길 45,서울특별시 강남구 신사동 602,37.5243393,127.0294194
CGV 여의도,"서울특별시 영등포구 여의동 국제금융로 10, 지하 3층",서울특별시 영등포구 여의도동 23 서울 국제금융 센터,37.5251829,126.9248706
CGV 영등포,"서울특별시 영등포구 영등포동4가 441-10, 경방 타임스퀘어 4층",서울특별시 영등포구 영등포동4가 441-10,37.5170147,126.9032983
CGV 왕십리,서울특별시 성동구 행당1동 왕십리광장로 17,서울특별시 성동구 행당동 168-151 왕십리민자역사,37.5613927,127.038469
CGV 용산아이파크몰,서울특별시 용산구 한강로3가 한강대로23길 55,서울특별시 용산구 한강로3가 40-999 용산역,37.5297718,126.9647415
CGV 중계,서울특별시 노원구 중계2.3동 동일로204가길 12,서울특별시 노원구 중계동 509-2 홈플러스,37.6398605,127.0686561
CGV 천호,서울특별시 강동구 천호동 양재대로 1571,서울특별시 강동구 천호동 42 천호복합 상업시설,37.5457146,127.1422553
CGV 청담씨네시티,"서울특별시 강남구 도산대로 323, 씨네시티빌딩 14층",서울특별시 강남구 신사동 651-21 씨네시티빌딩,37.5228972,127.0370162
CGV 피카디리1958,"서울특별시 종로구 돈의동 돈화문로5가길 1, B2",서울특별시 종로구 돈의동 137 피카디리플러스,37.5709889,126.9912905
CGV 하계,서울특별시 노원구 중계동 506-1,서울특별시 노원구 중계동 506-1 건영옴니백화점,37.6388308,127.0647676
CGV 홍대,서울특별시 마포구 서교동 양화로 153,서울특별시 마포구 동교동 159-8 토로스 쇼핑타워,37.5565056,126.9226503
CINE de CHEF 압구정,서울특별시 강남구 신사동 압구정로30길 45,서울특별시 강남구 신사동 602,37.5243393,127.0294194
CINE de CHEF 용산아이파크몰,서울특별시 용산구 한강로3가 한강대로23길 55,서울특별시 용산구 한강로3가 40-999 용산역,37.5297718,126.9647415
CGV 경기광주,경기도 광주시 역동 22-56,경기도 광주시 역동 22-56,37.4078637,127.2586639
CGV 고양행신,경기도 고양시 덕양구 행신2동 762-2,경기도 고양시 덕양구 행신2동 762-2,37.6136159,126.834508
CGV 광교,경기도 수원시 영통구 하동 955-70,경기도 수원시 영통구 하동 955-70,37.2856195,127.0574311
CGV 광교상현,"경기도 용인시 수지구 상현동 1116-4, W스퀘어 2층",경기도 용인시 수지구 상현동 1116-4,37.2969473,127.0680565
CGV 구리,경기도 구리시 인창동 경춘로 243,경기도 구리시 인창동 676-2 CGV구리,37.6017939,127.1420911
CGV 김포운양,경기도 김포시 운양동 김포한강11로 288-31,경기도 김포시 운양동 1296-9 에이스프라자,37.6548457,126.6840592
CGV 김포풍무,"경기도 김포시 풍무동 38-1, 홈플러스 지하1층",경기도 김포시 풍무동 38-1,37.6099547,126.723679
CGV 김포한강,경기도 김포시 걸포동 1574-4,경기도 김포시 걸포동 1574-4,37.6323108,126.7077649
CGV 동백,경기도 용인시 기흥구 동백동 동백죽전대로 444,경기도 용인시 기흥구 중동 833 쥬네브썬월드빌딩,37.27795,127.1515224
CGV 동수원,경기도 수원시 팔달구 인계동 1113-12,경기도 수원시 팔달구 인계동 1113-12 씨네파크,37.2635908,127.0321196
CGV 동탄,경기도 화성시 반송동 98,경기도 화성시 반송동 98 메타폴리스,37.2027941,127.0684801
CGV 동탄역,경기도 화성시 오산동 967-2416,경기도 화성시 오산동 967-2416,37.2027994,127.0982582
CGV 동탄호수공원,경기도 화성시 동탄면 산척리 89,경기도 화성시 산척동 산89,37.1663059,127.1155
CGV 배곧,"경기도 시흥시 경기도 시흥시 서울대학로278번길 61, 6층 621호",경기도 시흥시 정왕동 2537-2 서영베니스스퀘어,37.3681662,126.730675
CGV 범계,"경기도 안양시 동안구 동안로 119, 11층(호계동)",경기도 안양시 동안구 호계동 1039-3 킴스아울렛,37.3891932,126.9515747
CGV 부천,"경기도 부천시 길주로 180, 현대백화점부천중동점 U-PLEX 5층",경기도 부천시 중동 1164 현대백화점부천중동점,37.504318,126.7620841
CGV 부천역,경기도 부천시 원미구 심곡2동 부일로 460,경기도 부천시 심곡동 383-1 시네마존,37.4859191,126.7810203
CGV 부천옥길,경기도 부천시 옥길동 745-6,경기도 부천시 옥길동 745-6 문영 퀸즈파크 C,37.4674309,126.8236702
CGV 북수원,경기도 수원시 장안구 조원동 893,경기도 수원시 장안구 조원동 893 아울렛쇼핑타운,37.3035264,127.0074437
CGV 산본,경기도 군포시 산본동 번영로 505,경기도 군포시 산본동 1142-2 대우디오플러스,37.3587974,126.9332061
CGV 서현,경기도 성남시 분당구 서현동 256,경기도 성남시 분당구 서현동 256 비전월드,37.3873599,127.1224439
CGV 성남모란,경기도 성남시 중원구 성남동 3499,경기도 성남시 중원구 성남동 3499 니즈몰,37.4313921,127.1297659
CGV 소풍,경기도 부천시 원미구 상동 송내대로 239,경기도 부천시 상동 539-1 부천터미널소풍,37.5041589,126.7567042
CGV 수원,경기도 수원시 팔달구 매산동 덕영대로 924,경기도 수원시 팔달구 매산로1가 18 AK플라자,37.2656796,127.0002404
CGV 스타필드시티위례,경기도 하남시 학암동 660,경기도 하남시 학암동 660 스타필드시티 위례점,37.480055,127.148397
CGV 시흥,경기도 시흥시 대야동 복지로 90,경기도 의왕시 내손동 683-6 서울다세대,37.3857406,126.9805578
CGV 안산,"경기도 안산시 단원구 고잔동 광덕대로 194, NC백화점 A관 6층",경기도 안산시 단원구 고잔동 725-1 2001아울렛,37.3134744,126.8310246
CGV 안성,경기도 안성시 석정동 아양2로 109,경기도 안성시 석정동 139-1,37.0121891,127.2572136
CGV 야탑,경기도 성남시 분당구 야탑동 성남대로925번길 16,경기도 성남시 분당구 야탑동 341 분당종합터미널,37.4131098,127.1273427
CGV 양주옥정,경기도 양주시 옥정동 963-12,경기도 양주시 옥정동 963-12,37.8194316,127.0921666
CGV 역곡,경기도 부천시 역곡3동 경인로 505,경기도 부천시 괴안동 113-1 역곡하이뷰,37.4844859,126.8111066
CGV 오리,경기도 성남시 분당구 구미1동 탄천상로151번길 20,"경기도 성남시 분당구 구미동 159 월드쇼핑,삼성SDA",37.3403273,127.1068142
CGV 오산,경기도 오산시 대원동 원동로 22,경기도 오산시 원동 335-10,37.1420139,127.0710131
CGV 오산중앙,경기도 오산시 대원동 원동로 22,경기도 오산시 원동 335-10,37.1420139,127.0710131
CGV 용인,경기도 용인시 처인구 김량장동 금령로 86,경기도 용인시 처인구 김량장동 301-3,37.2350825,127.2058051
CGV 의정부,경기도 의정부시 의정부동 평화로 525,경기도 의정부시 의정부동 168-54 의정부민자역사,37.7379901,127.0458795
CGV 의정부태흥,경기도 의정부시 의정부동 시민로 80,경기도 의정부시 의정부동 494 센트럴타워,37.7381114,127.04387
CGV 이천,경기도 이천시 중리동 중리천로 58,경기도 이천시 중리동 201-1,37.2796454,127.4441586
CGV 일산,경기도 고양시 일산동구 장항동 정발산로 24,경기도 고양시 일산동구 장항동 868 웨스턴돔1,37.6557939,126.7721369
CGV 정왕,경기도 시흥시 정왕1동 정왕대로 210,경기도 시흥시 정왕동 1734-2 E MART시화점,37.3459274,126.736907
CGV 죽전,경기도 용인시 수지구 죽전동 1285,경기도 용인시 수지구 죽전동 1285 (주)신세계백화점경기점,37.3250148,127.1081239
CGV 파주문산,경기도 파주시 문산읍 방촌로 1719-10,경기도 파주시 문산읍 당동리 892,37.8666384,126.7841218
CGV 파주야당,경기도 파주시 야당동 1066,경기도 파주시 야당동 1066,37.7131712,126.7599312
CGV 판교,"경기도 성남시 분당구 백현동 541, 현대백화점 5층",경기도 성남시 분당구 백현동 541 현대백화점 판교점,37.3927746,127.1120316
CGV 평촌,경기도 안양시 동안구 부림동 관평로170번길 33,경기도 안양시 동안구 관양동 1606 평촌주공공이,37.3930077,126.9622757
CGV 평택,경기도 평택시 원평동 평택로 51,경기도 평택시 평택동 185-579 평택민자역사,36.9909191,127.0846944
CGV 평택소사,경기도 평택시 비전동 1090-2,경기도 평택시 비전동 1090-2,37.0004724,127.1115024
CGV 포천,경기도 포천시 소흘읍 송우리 110-6,경기도 포천시 소흘읍 송우리 110-6,37.8293934,127.1495962
CGV 화성봉담,경기도 화성시 봉담읍 동화리 564,경기도 화성시 봉담읍 동화리 564,37.2190551,126.9555409
CGV 화정,경기도 고양시 덕양구 화정1동 화중로104번길 28,경기도 고양시 덕양구 화정동 966-1 화정씨네마플러스,37.6356958,126.8331979
CGV 계양,"인천광역시 계양구 작전동 899-1, 메트로몰 8층",인천광역시 계양구 작전동 899-1 메카브,37.5338765,126.7345163
CGV 남주안,인천광역시 남구 주안동 미추홀대로 736,인천광역시 미추홀구 주안동 141-8 아이하니,37.4633112,126.6808039
CGV 부평,인천광역시 부평구 청천1동 마장로 489,인천광역시 부평구 청천동 386 아이즈빌아울렛,37.5213637,126.7037206
CGV 연수역,인천광역시 연수구 청학동 벚꽃로 106,인천광역시 연수구 청학동 496-4 연수광장프라자,37.4176742,126.6772219
CGV 인천,"인천광역시 남동구 예술로 198, SEE&SEE 빌딩 4층",인천광역시 남동구 구월동 1130 CGV 홈플러스,37.451739,126.7019625
CGV 인천공항,인천광역시 중구 운서동 공항로 272,인천광역시 중구 운서동 2840 인천공항,37.4583507,126.4276993
CGV 인천논현,인천광역시 남동구 논현2동 논현로26번길 34,인천광역시 남동구 논현동 646-2,37.4022835,126.7086048
CGV 인천연수,"인천광역시 연수구 동춘동 청능대로 210, 4층",인천광역시 연수구 동춘동 926 스퀘어원,37.4059982,126.6836221
CGV 인천학익,인천광역시 남구 학익동 401-21,인천광역시 미추홀구 학익동 401-21,37.4456209,126.6518154
CGV 주안역,인천광역시 남구 주안동 염창로 58,인천광역시 미추홀구 주안동 30-1 주안cgv,37.4655439,126.680488
CGV 청라,"인천광역시 서구 청라루비로 76, 청라 스퀘어7",인천광역시 서구 청라동 155-7 청라 스퀘어7,37.5322853,126.6420996
CGV 강릉,강원도 강릉시 옥천동 189,경기도 안성시 옥천동 189,37.0031727,127.2736305
CGV 원주,강원도 원주시 단계동 서원대로 171,강원도 원주시 단계동 877-1 원주시외버스터미널,37.3448012,127.9308481
CGV 인제,강원도 인제군 인제읍 비봉로44번길 100,강원도 인제군 인제읍 남북리 388 하늘내린센터,38.0606741,128.164952
CGV 춘천,강원도 춘천시 퇴계동 1017,강원도 춘천시 퇴계동 1017,37.8505675,127.7437201
CGV 당진,충청남도 당진시 읍내동 우두1로 88,충청남도 당진시 읍내동 1532,36.9019533,126.6302052
CGV 대전,대전광역시 중구 문화1동 계백로 1700,대전광역시 중구 문화동 1-16 세이백화점,36.3206308,127.4087992
CGV 대전가수원,대전광역시 서구 도안동 로11번길 45,대전광역시 서구 가수원동 1042 KD U PLAZA,36.3054488,127.3506089
CGV 대전가오,대전광역시 동구 가오동 557,대전광역시 동구 가오동 557 패션아일랜드,36.3069376,127.45802
CGV 대전탄방,대전광역시 서구 탄방동 745,대전광역시 서구 탄방동 745,36.3470308,127.3888544
CGV 대전터미널,대전광역시 동구 용전동 동서대로 1689,대전광역시 동구 용전동 63-3 대전복합터미널(서관),36.3503331,127.4367146
CGV 보령,충청남도 보령시 대천동 대흥로 51,충청남도 보령시 대천동 324-4,36.3495918,126.5928768
CGV 서산,충청남도 서산시 동문동 안견로 242,충청남도 서산시 동문동 1029-1 디퍼아울렛타운,36.778583,126.4564554
CGV 세종,세종특별자치시 장기면 도움1로 108,세종특별자치시 종촌동 673 몰리브(Mallive),36.5025868,127.2475811
CGV 유성노은,대전광역시 유성구 지족동 노은로 144,대전광역시 유성구 지족동 905-4 노은타운,36.3725376,127.318418
CGV 천안,"충청남도 천안시 동남구 명동길 47, CGV",충청남도 천안시 동남구 대흥동 102-10 CGV,36.8077033,127.1483958
CGV 천안터미널,충청남도 천안시 동남구 신부동 만남로 43,"충청남도 천안시 동남구 신부동 363-2 신세계백화점충청점,천안종합버스터미널",36.820513,127.1563472
CGV 천안펜타포트,충청남도 천안시 서북구 불당동 1289,충청남도 천안시 서북구 불당동 1289 펜타포트,36.7982879,127.1013714
CGV 청주(서문),충청북도 청주시 상당구 서문동 29-2,충청북도 청주시 상당구 서문동 29-2,36.6349813,127.4869205
CGV 청주성안길,충청북도 청주시 상당구 성안동 상당로81번길 33,충청북도 청주시 상당구 북문로1가 170-1 쥬네쓰,36.6352359,127.4881099
CGV 청주율량,충청북도 청주시 청원구 율량동 충청대로 114,충청북도 청주시 청원구 율량동 500-3 그랜드플라자청주호텔,36.6665608,127.4944952
CGV 청주지웰시티,충청북도 청주시 흥덕구 복대1동 대농로 47-1,충청북도 청주시 흥덕구 복대동 3381,36.6433255,127.4278548
CGV 청주터미널,충청북도 청주시 흥덕구 가경동 1416-3,충청북도 청주시 흥덕구 가경동 1416-3 드림플러스,36.6261596,127.4312233
CGV 충북혁신,충청북도 음성군 맹동면 동성리 500,충청북도 진천군 이월면 동성리 500-2,36.8878724,127.4546097
CGV 홍성,충청남도 홍성군 홍성읍 고암리 1042,"충청남도 홍성군 홍성읍 고암리 1042 롯데마트, 홍성터미널",36.6010812,126.6762899
CGV 대구,대구광역시 중구 사일동 15-1,대구광역시 중구 사일동 15-1 동성로파티,35.8713181,128.5945358
CGV 대구수성,"대구광역시 수성구 범물동 1273, 동아백화점 8층",대구광역시 수성구 범물동 1273 동아백화점수성점,35.8210867,128.6404323
CGV 대구스타디움,대구광역시 수성구 대흥동 유니버시아드로 140,대구광역시 수성구 대흥동 504 대구스타디움몰,35.8316602,128.6873259
CGV 대구아카데미,대구광역시 중구 남일동 중앙대로 412,대구광역시 중구 남일동 65-1 아카데미극장,35.8699639,128.59432
CGV 대구월성,대구광역시 달서구 월성동 조암로 29,대구광역시 달서구 월성동 1846 월성동이래타워,35.8246183,128.5269727
CGV 대구이시아,대구광역시 동구 봉무동 팔공로49길 16,대구광역시 동구 봉무동 1545 이시아폴리스 라이프스타일 센터,35.9215484,128.6373571
CGV 대구칠곡,대구광역시 북구 동천동 894-1,대구광역시 북구 동천동 894-1 세븐밸리,35.9441098,128.5603482
CGV 대구한일,대구광역시 중구 성내1동 동성로 39,대구광역시 중구 동성로2가 88-22 씨네시티한일,35.8704373,128.5953252
CGV 대구현대,대구광역시 중구 성내2동 달구벌대로 2077,대구광역시 중구 계산동2가 200 현대백화점,35.8667192,128.5906289
CGV 남포,부산광역시 중구 남포동 비프광장로 18,부산광역시 중구 남포동6가 91,35.09836,129.027307
CGV 대연,부산광역시 남구 대연3동 수영로 305,부산광역시 남구 대연동 73-15 스파크,35.1373407,129.0992614
CGV 동래,부산광역시 동래구 온천동 중앙대로 1523,부산광역시 동래구 온천동 153-8 SKHUBSKY,35.2208431,129.0855308
CGV 서면,"부산광역시 진구 전포3동 892-20, 지오플레이스6층",부산광역시 부산진구 전포동 892-20 지오플레이스,35.1494322,129.0639774
CGV 서면삼정타워,부산광역시 부산진구 부전2동 중앙대로 672,부산광역시 부산진구 부전동 227-2 삼정타워,35.1529881,129.0596393
CGV 센텀시티,"부산광역시 해운대구 우동 센텀남대로 35, 신세계백화점센텀시티점 5F",부산광역시 해운대구 우동 1495 신세계백화점센텀시티점,35.1688179,129.1295233
CGV 아시아드,"부산광역시 연제구 거제2동 1208, 부산아시아드주경기장노외주차장",부산광역시 연제구 거제2동 1208 부산아시아드주경기장노외주차장,35.1909426,129.061412
CGV 울산삼산,울산광역시 남구 삼산동 화합로 185,울산광역시 남구 삼산동 1569-1,35.5419627,129.3388287
CGV 울산신천,울산광역시 북구 신천동 51,울산광역시 북구 신천동 51 신천CGV LEEPLEX,35.6349485,129.3557499
CGV 울산진장,울산광역시 북구 진장동 120-9,울산광역시 북구 진장동 120-9 CGV,35.5758471,129.3559333
CGV 정관,부산광역시 기장군 정관면 정관중앙로 45,부산광역시 기장군 정관읍 매학리 717-6,35.3211949,129.1782764
CGV 하단아트몰링,부산광역시 사하구 하단2동 낙동남로 1413,부산광역시 사하구 하단동 526-6 아트몰링,35.106755,128.966475
CGV 해운대,부산광역시 해운대구 우동 해운대로 620,부산광역시 해운대구 우동 539-10 해운대 라뮤에뜨,35.1629713,129.1584586
CGV 화명,부산광역시 북구 화명동 화명대로 16,부산광역시 북구 화명동 2275-1 센츄리빌딩,35.2347832,129.009772
씨네드쉐프 센텀시티,부산광역시 해운대구 센텀남대로 35,부산광역시 해운대구 우동 1495 신세계백화점센텀시티점,35.1688179,129.1295233
CGV 거제,경상남도 거제시 장평동 1211,경상남도 거제시 장평동 1211 디큐브백화점,34.8910818,128.6165933
CGV 구미,경상북도 구미시 원평동 68-1번지,경상북도 구미시 원평동 68-1 멀티복합상가,36.1300888,128.3275566
CGV 김천율곡,"경상북도 김천시 율곡동 1123, 더스퀘어",경상북도 김천시 율곡동 1123 더스퀘어,36.1148779,128.183447
CGV 김해,경상남도 김해시 내동 내외중앙로 137,경상남도 김해시 내동 1131-4,35.2421848,128.8685659
CGV 김해율하,경상남도 김해시 율하2로 111 KR,경상남도 김해시 율하동 1347-2,35.17002,128.8135013
CGV 김해장유,경상남도 김해시 장유면 삼문로 12,경상남도 김해시 대청동 302-5,35.1919388,128.8021267
CGV 마산,"경상남도 창원시 마산회원구 합성동 126-4, 보보스존 8층",경상남도 창원시 마산회원구 합성동 126-4 CGV,35.2375637,128.5823881
CGV 북포항,경상북도 포항시 북구 중앙동 서동로 93,경상북도 포항시 북구 덕산동 235-4,36.0407259,129.3682288
CGV 안동,경상북도 안동시 용상동 경동로 841,경상북도 안동시 용상동 1426-1 CGV안동,36.5611545,128.7493568
CGV 양산물금,경상남도 양산시 물금읍 백호로 68,경상남도 양산시 물금읍 가촌리 1269-13,35.3180074,129.0018933
CGV 양산삼호,경상남도 양산시 삼호동 1010-3,경상남도 양산시 삼호동 1010-3,35.4139087,129.1678275
CGV 창원,경상남도 창원시 의창구 팔용동 창원대로397번길 6,경상남도 창원시 의창구 팔용동 30-1 뉴코아아울렛,35.2345063,128.6421915
CGV 창원더시티,경상남도 창원시 의창구 팔룡동 원이대로 320,경상남도 창원시 의창구 대원동 121 더시티세븐,35.2402387,128.6534296
CGV 통영,경상남도 통영시 북신동 원문로 27 월드지브이존,경상남도 통영시 북신동 698-1 월드지브이존,34.8572486,128.4255733
CGV 포항,"경상북도 포항시 남구 중흥로 77, 7층(상도동)",경상북도 포항시 남구 상도동 582 밸류플러스,36.0127407,129.3489248
CGV 광양,전라남도 광양시 금호동 624-12,전라남도 광양시 금호동 624-12,34.9353683,127.7220898
CGV 광양 엘에프스퀘어,전라남도 광양시 광양읍 덕례리 707,전라남도 광양시 광양읍 덕례리 707,34.9630258,127.5667066
CGV 광주금남로,광주광역시 동구 불로동 중앙로160번길 16-7,광주광역시 동구 불로동 1-21,35.1468139,126.9146622
CGV 광주상무,광주광역시 서구 치평동 1218-1,광주광역시 서구 치평동 1218-1 프리미엄아울렛,35.1542945,126.8510105
CGV 광주용봉,광주광역시 북구 용봉동 문화소통로 170,광주광역시 북구 용봉동 17-1 하미스포렉스,35.1824936,126.9120867
CGV 광주첨단,광주광역시 광산구 쌍암동 임방울대로826번길 2층,광주광역시 광산구 쌍암동 694-1,35.2172977,126.8490906
CGV 광주충장로,"광주 광역시 동구 충장로 4가 29-2, NC웨이브 11층",광주광역시 동구 충장로4가 29-2 NC 웨이브 충장점,35.1487762,126.9130789
CGV 광주터미널,광주광역시 서구 광천동 무진대로 904,광주광역시 서구 광천동 49-1 유스퀘어(광천터미널),35.1606026,126.8798481
CGV 광주하남,광주광역시 광산구 하남동 용아로400번길 30,광주광역시 광산구 하남동 832 TERRACE56  PICNICMALL,35.1780814,126.8064899
CGV 군산,전라북도 군산시 나운2동 백토로 166,전라북도 군산시 나운동 124-4 롯데시네마,35.9643185,126.7054883
CGV 나주,전라남도 나주시 빛가람동 203-3,전라남도 나주시 빛가람동 203-3 T.C.C복합타워,35.0239019,126.7930143
CGV 목포,전라남도 목포시 상동 892,전라남도 목포시 상동 892,34.8025043,126.4198674
CGV 목포평화광장,전라남도 목포시 상동 1129-6,전라남도 목포시 상동 1129-6 롯데시네마목포8,34.7993231,126.433214
CGV 서전주,전라북도 전주시 완산구 효자동3가 홍산로 260,전라북도 전주시 완산구 효자동3가 1531-2 M-SQUARE,35.816831,127.1064634
CGV 순천,전라남도 순천시 장천동 장명로 22,전라남도 순천시 장천동 54-1,34.950767,127.4863649
CGV 순천신대,전라남도 순천시 해룡면 해광로 199,전라남도 순천시 해룡면 신대리 2139,34.9259734,127.5523936
CGV 여수웅천,전라남도 여수시 웅천동 웅천로 19-16,전라남도 여수시 웅천동 1718-5,34.7478302,127.6781102
CGV 익산,전라북도 익산시 영등1동 무왕로 1052,전라북도 익산시 영등동 149-1 CGV익산,35.9581321,126.9737551
CGV 전주고사,전라북도 전주시 완산구 중앙동 전주객사3길 72,전라북도 전주시 완산구 고사동 355-1,35.8203737,127.142048
CGV 전주효자,전라북도 전주시 완산구 효자동1가 434,전라북도 전주시 완산구 효자동1가 434,35.8070297,127.1158694
CGV 정읍,전라북도 정읍시 수성동 중앙1길 1,전라북도 정읍시 수성동 525-1 CGV 정읍,35.5699207,126.8495615
CGV 제주,제주특별자치도 제주시 이도2동 서광로 288,제주특별자치도 제주시 이도이동 1776-3 메카플러스,33.5000817,126.5272542
CGV 제주노형,제주특별자치도 제주시 노형동 노형로 407,제주특별자치도 제주시 노형동 1288-5 노형타워,33.4858236,126.4782833